[
  {
    "lat": 35.6781,
    "lon": 10.0963,
    "Placename": "Kairouan, Tunisia",
    "Category": "Filming Location",
    "Description": "Kairouan's medina streets doubled for Cairo in *Raiders of the Lost Ark*, providing the backdrop for market sequences and the famous swordsman encounter.",
    "pictures": [],
    "film": "Raiders of the Lost Ark",
    "Scene": "Cairo marketplace confrontation",
    "cFactor": 0.9
  },
  {
    "lat": 33.9197,
    "lon": 8.1335,
    "Placename": "Tozeur, Tunisia",
    "Category": "Filming Location",
    "Description": "The desert outside Tozeur stood in for the Tanis dig site in *Raiders of the Lost Ark*, with dunes and palm oases framing the excavation camp.",
    "pictures": [],
    "film": "Raiders of the Lost Ark",
    "Scene": "Tanis excavation camp",
    "cFactor": 0.9
  },
  {
    "lat": 46.1591,
    "lon": -1.1522,
    "Placename": "La Rochelle, France",
    "Category": "Filming Location",
    "Description": "La Rochelle's historic harbor and port facilities were used for the Nazi U-boat base sequence in *Raiders of the Lost Ark*.",
    "pictures": [],
    "film": "Raiders of the Lost Ark",
    "Scene": "Nazi U-boat base departure",
    "cFactor": 0.9
  },
  {
    "lat": 51.6514,
    "lon": -0.2775,
    "Placename": "Elstree Studios, Borehamwood, England",
    "Category": "Studio/Stage",
    "Description": "Elstree Studios hosted major interior builds for multiple Indiana Jones films, including set work for *Raiders of the Lost Ark* and *The Temple of Doom*.",
    "pictures": [],
    "film": "Raiders of the Lost Ark",
    "Scene": "Interior sets and effects stages",
    "cFactor": 0.9
  },
  {
    "lat": 37.9792,
    "lon": -121.3134,
    "Placename": "University of the Pacific, Stockton, California, USA",
    "Category": "Filming Location",
    "Description": "The University of the Pacific campus served as the exterior for Marshall College, Indiana Jones's home institution in *Raiders of the Lost Ark*.",
    "pictures": [],
    "film": "Raiders of the Lost Ark",
    "Scene": "Marshall College exterior shots",
    "cFactor": 0.9
  },
  {
    "lat": 30.3285,
    "lon": 35.4444,
    "Placename": "Al-Khazneh (The Treasury), Petra, Jordan",
    "Category": "Filming Location",
    "Description": "Petra's Treasury was the imposing facade of the Temple of the Sun in *The Last Crusade*, the final resting place of the Holy Grail.",
    "pictures": [],
    "film": "Indiana Jones and the Last Crusade",
    "Scene": "Temple of the Sun exterior",
    "cFactor": 0.9
  },
  {
    "lat": 45.4408,
    "lon": 12.3155,
    "Placename": "Venice, Italy",
    "Category": "Filming Location",
    "Description": "Venice doubled as itself for *The Last Crusade*, including canal chase sequences and the approach to the Grail diary's clues.",
    "pictures": [],
    "film": "Indiana Jones and the Last Crusade",
    "Scene": "Venice canal chase and clues",
    "cFactor": 0.9
  },
  {
    "lat": 50.2509,
    "lon": 7.266,
    "Placename": "Schloss B\u00fcrresheim, Mayen, Germany",
    "Category": "Filming Location",
    "Description": "Schloss B\u00fcrresheim stood in for Castle Brunwald, the Grail family's fortress in *The Last Crusade*.",
    "pictures": [],
    "film": "Indiana Jones and the Last Crusade",
    "Scene": "Castle Brunwald exterior",
    "cFactor": 0.9
  },
  {
    "lat": 22.022,
    "lon": -159.4081,
    "Placename": "Kipu Falls, Kauai, Hawaii, USA",
    "Category": "Filming Location",
    "Description": "Kipu Falls and the surrounding jungle doubled for Peru during the opening trek in *Raiders of the Lost Ark*.",
    "pictures": [],
    "film": "Raiders of the Lost Ark",
    "Scene": "Peru jungle trek and waterfall",
    "cFactor": 0.78
  },
  {
    "lat": 21.9659,
    "lon": -159.3929,
    "Placename": "Huleia River, Kauai, Hawaii, USA",
    "Category": "Filming Location",
    "Description": "The Huleia River on Kauai provided river travel scenery for the Peru sequences in *Raiders of the Lost Ark*.",
    "pictures": [],
    "film": "Raiders of the Lost Ark",
    "Scene": "River travel in the Peru opening",
    "cFactor": 0.78
  },
  {
    "lat": 22.18,
    "lon": -159.654,
    "Placename": "Na Pali Coast State Wilderness Park, Kauai, Hawaii, USA",
    "Category": "Filming Location",
    "Description": "The rugged Na Pali Coast coastline was used for aerial and landscape plates for the Peru opening in *Raiders of the Lost Ark*.",
    "pictures": [],
    "film": "Raiders of the Lost Ark",
    "Scene": "Aerial Peru landscape plates",
    "cFactor": 0.78
  },
  {
    "lat": 22.204,
    "lon": -159.506,
    "Placename": "Hanalei Bay, Kauai, Hawaii, USA",
    "Category": "Filming Location",
    "Description": "Hanalei Bay's lush backdrop contributed to the jungle visuals in *Raiders of the Lost Ark*.",
    "pictures": [],
    "film": "Raiders of the Lost Ark",
    "Scene": "Peru jungle establishing views",
    "cFactor": 0.78
  },
  {
    "lat": 22.051,
    "lon": -159.336,
    "Placename": "Wailua River, Kauai, Hawaii, USA",
    "Category": "Filming Location",
    "Description": "Wailua River scenery was used for jungle travel establishing shots in *Raiders of the Lost Ark*.",
    "pictures": [],
    "film": "Raiders of the Lost Ark",
    "Scene": "Jungle river establishing shots",
    "cFactor": 0.78
  },
  {
    "lat": 33.8915,
    "lon": 7.9116,
    "Placename": "Sidi Bouhlel Canyon, Tunisia",
    "Category": "Filming Location",
    "Description": "Sidi Bouhlel's canyon served as part of the Tanis desert landscape in *Raiders of the Lost Ark*.",
    "pictures": [],
    "film": "Raiders of the Lost Ark",
    "Scene": "Tanis desert approach",
    "cFactor": 0.78
  },
  {
    "lat": 33.75,
    "lon": 8.37,
    "Placename": "Chott el Jerid, Tunisia",
    "Category": "Filming Location",
    "Description": "The salt flats of Chott el Jerid helped evoke the vast Tanis desert environment in *Raiders of the Lost Ark*.",
    "pictures": [],
    "film": "Raiders of the Lost Ark",
    "Scene": "Tanis desert vistas",
    "cFactor": 0.78
  },
  {
    "lat": 33.8743,
    "lon": 7.8772,
    "Placename": "Nefta Oasis, Tunisia",
    "Category": "Filming Location",
    "Description": "Nefta's oasis scenery was used to flesh out the Tanis excavation zone in *Raiders of the Lost Ark*.",
    "pictures": [],
    "film": "Raiders of the Lost Ark",
    "Scene": "Tanis excavation surrounds",
    "cFactor": 0.78
  },
  {
    "lat": 51.404,
    "lon": -0.454,
    "Placename": "Shepperton Studios, Shepperton, England",
    "Category": "Studio/Stage",
    "Description": "Shepperton Studios hosted extensive set builds and effects work for *The Temple of Doom*.",
    "pictures": [],
    "film": "Indiana Jones and the Temple of Doom",
    "Scene": "Mine and temple interiors",
    "cFactor": 0.9
  },
  {
    "lat": 7.2906,
    "lon": 80.6337,
    "Placename": "Kandy, Sri Lanka",
    "Category": "Filming Location",
    "Description": "Kandy's environs provided village and countryside settings for *The Temple of Doom*.",
    "pictures": [],
    "film": "Indiana Jones and the Temple of Doom",
    "Scene": "Village and countryside exteriors",
    "cFactor": 0.78
  },
  {
    "lat": 7.957,
    "lon": 80.7603,
    "Placename": "Sigiriya Rock Fortress, Sri Lanka",
    "Category": "Filming Location",
    "Description": "The dramatic Sigiriya landscape contributed to the rugged terrain seen in *The Temple of Doom*.",
    "pictures": [],
    "film": "Indiana Jones and the Temple of Doom",
    "Scene": "Rugged landscape plates",
    "cFactor": 0.78
  },
  {
    "lat": 7.9397,
    "lon": 81.002,
    "Placename": "Polonnaruwa, Sri Lanka",
    "Category": "Filming Location",
    "Description": "Historic ruins around Polonnaruwa were used for jungle and temple settings in *The Temple of Doom*.",
    "pictures": [],
    "film": "Indiana Jones and the Temple of Doom",
    "Scene": "Temple ruins and jungle settings",
    "cFactor": 0.78
  },
  {
    "lat": 6.9892,
    "lon": 80.4111,
    "Placename": "Kitulgala, Sri Lanka",
    "Category": "Filming Location",
    "Description": "Kitulgala's rainforest and river terrain helped stage the action-heavy bridge and jungle sequences in *The Temple of Doom*.",
    "pictures": [],
    "film": "Indiana Jones and the Temple of Doom",
    "Scene": "Jungle bridge and chase terrain",
    "cFactor": 0.78
  },
  {
    "lat": 6.03,
    "lon": 80.217,
    "Placename": "Galle Fort, Sri Lanka",
    "Category": "Filming Location",
    "Description": "Galle's colonial fort architecture provided atmospheric texture for *The Temple of Doom* location work.",
    "pictures": [],
    "film": "Indiana Jones and the Temple of Doom",
    "Scene": "Colonial fort texture shots",
    "cFactor": 0.78
  },
  {
    "lat": 36.834,
    "lon": -2.4637,
    "Placename": "Almer\u00eda, Spain",
    "Category": "Filming Location",
    "Description": "Almer\u00eda served as the broader backdrop for Hatay and desert action sequences in *The Last Crusade*.",
    "pictures": [],
    "film": "Indiana Jones and the Last Crusade",
    "Scene": "Hatay region landscape work",
    "cFactor": 0.78
  },
  {
    "lat": 37.0843,
    "lon": -2.3894,
    "Placename": "Tabernas Desert, Spain",
    "Category": "Filming Location",
    "Description": "The Tabernas Desert doubled for the Hatay region during the tank chase in *The Last Crusade*.",
    "pictures": [],
    "film": "Indiana Jones and the Last Crusade",
    "Scene": "Tank chase desert staging",
    "cFactor": 0.78
  },
  {
    "lat": 36.8311,
    "lon": -2.1024,
    "Placename": "Cabo de Gata-N\u00edjar Natural Park, Spain",
    "Category": "Filming Location",
    "Description": "Cabo de Gata's rocky coastal terrain filled out chase and travel plates for *The Last Crusade*.",
    "pictures": [],
    "film": "Indiana Jones and the Last Crusade",
    "Scene": "Coastal travel plates",
    "cFactor": 0.78
  },
  {
    "lat": 37.3005,
    "lon": -3.1347,
    "Placename": "Guadix, Spain",
    "Category": "Filming Location",
    "Description": "Guadix and its arid outskirts provided location work for *The Last Crusade*'s Hatay sequences.",
    "pictures": [],
    "film": "Indiana Jones and the Last Crusade",
    "Scene": "Hatay village surroundings",
    "cFactor": 0.78
  },
  {
    "lat": 36.732,
    "lon": -3.6909,
    "Placename": "Almu\u00f1\u00e9car, Spain",
    "Category": "Filming Location",
    "Description": "Coastal Almu\u00f1\u00e9car contributed Mediterranean landscape shots to *The Last Crusade*.",
    "pictures": [],
    "film": "Indiana Jones and the Last Crusade",
    "Scene": "Mediterranean establishing shots",
    "cFactor": 0.78
  },
  {
    "lat": 40.4168,
    "lon": -3.7038,
    "Placename": "Madrid, Spain",
    "Category": "Filming Location",
    "Description": "Madrid's urban settings supported production logistics and background plates for *The Last Crusade*.",
    "pictures": [],
    "film": "Indiana Jones and the Last Crusade",
    "Scene": "City travel plates and logistics",
    "cFactor": 0.78
  },
  {
    "lat": 51.6419,
    "lon": -0.4726,
    "Placename": "Royal Masonic School, Rickmansworth, England",
    "Category": "Filming Location",
    "Description": "The Royal Masonic School's architecture doubled for Marshall College in *The Last Crusade*.",
    "pictures": [],
    "film": "Indiana Jones and the Last Crusade",
    "Scene": "Marshall College exteriors",
    "cFactor": 0.9
  },
  {
    "lat": 51.762,
    "lon": -0.2188,
    "Placename": "Hatfield House, Hertfordshire, England",
    "Category": "Filming Location",
    "Description": "Hatfield House supplied stately exteriors for university and mansion backdrops in *The Last Crusade*.",
    "pictures": [],
    "film": "Indiana Jones and the Last Crusade",
    "Scene": "Mansion and university backdrops",
    "cFactor": 0.9
  },
  {
    "lat": 51.531,
    "lon": -0.126,
    "Placename": "St Pancras International, London, England",
    "Category": "Filming Location",
    "Description": "St Pancras provided grand station architecture used for travel cutaways in *The Last Crusade*.",
    "pictures": [],
    "film": "Indiana Jones and the Last Crusade",
    "Scene": "Train station travel shots",
    "cFactor": 0.9
  },
  {
    "lat": 41.3163,
    "lon": -72.9223,
    "Placename": "Yale University, New Haven, Connecticut, USA",
    "Category": "Filming Location",
    "Description": "Yale's campus contributed collegiate exteriors for *Kingdom of the Crystal Skull*.",
    "pictures": [],
    "film": "Indiana Jones and the Kingdom of the Crystal Skull",
    "Scene": "Academic exterior plates",
    "cFactor": 0.78
  },
  {
    "lat": 41.3077,
    "lon": -72.928,
    "Placename": "New Haven Green, Connecticut, USA",
    "Category": "Filming Location",
    "Description": "New Haven's historic green provided 1950s campus atmosphere in *Kingdom of the Crystal Skull*.",
    "pictures": [],
    "film": "Indiana Jones and the Kingdom of the Crystal Skull",
    "Scene": "Campus-era street scenes",
    "cFactor": 0.78
  },
  {
    "lat": 34.0562,
    "lon": -118.2365,
    "Placename": "Los Angeles Union Station, Los Angeles, California, USA",
    "Category": "Filming Location",
    "Description": "Union Station's interiors and platforms stood in for bustling travel hubs in *Kingdom of the Crystal Skull*.",
    "pictures": [],
    "film": "Indiana Jones and the Kingdom of the Crystal Skull",
    "Scene": "Mid-century station travel",
    "cFactor": 0.78
  },
  {
    "lat": 34.2887,
    "lon": -118.4582,
    "Placename": "San Fernando Valley, California, USA",
    "Category": "Filming Location",
    "Description": "San Fernando Valley streets were used for suburban driving plates in *Kingdom of the Crystal Skull*.",
    "pictures": [],
    "film": "Indiana Jones and the Kingdom of the Crystal Skull",
    "Scene": "Suburban driving plates",
    "cFactor": 0.78
  },
  {
    "lat": 34.0522,
    "lon": -118.2437,
    "Placename": "Los Angeles, California, USA",
    "Category": "Filming Location",
    "Description": "Los Angeles provided studio backlots and location work for *Kingdom of the Crystal Skull* sequences.",
    "pictures": [],
    "film": "Indiana Jones and the Kingdom of the Crystal Skull",
    "Scene": "Backlot and city plates",
    "cFactor": 0.78
  },
  {
    "lat": 38.9072,
    "lon": -77.0369,
    "Placename": "Washington, D.C., USA",
    "Category": "Filming Location",
    "Description": "Washington, D.C. supplied establishing city shots for *Kingdom of the Crystal Skull*'s U.S. government scenes.",
    "pictures": [],
    "film": "Indiana Jones and the Kingdom of the Crystal Skull",
    "Scene": "Government establishing shots",
    "cFactor": 0.78
  },
  {
    "lat": 55.8642,
    "lon": -4.2518,
    "Placename": "Glasgow, Scotland",
    "Category": "Filming Location",
    "Description": "Glasgow city streets doubled for mid-century New York in *The Dial of Destiny*.",
    "pictures": [],
    "film": "Indiana Jones and the Dial of Destiny",
    "Scene": "1960s New York street scenes",
    "cFactor": 0.9
  },
  {
    "lat": 53.4084,
    "lon": -2.9916,
    "Placename": "Liverpool, England",
    "Category": "Filming Location",
    "Description": "Liverpool's historic streets and waterfront stood in for 1960s Manhattan in *The Dial of Destiny*.",
    "pictures": [],
    "film": "Indiana Jones and the Dial of Destiny",
    "Scene": "Manhattan stand-in streets",
    "cFactor": 0.9
  },
  {
    "lat": 55.6072,
    "lon": -1.7094,
    "Placename": "Bamburgh Castle, Northumberland, England",
    "Category": "Filming Location",
    "Description": "Bamburgh Castle doubled for a Nazi stronghold during the 1944 prologue of *The Dial of Destiny*.",
    "pictures": [],
    "film": "Indiana Jones and the Dial of Destiny",
    "Scene": "1944 Nazi stronghold exterior",
    "cFactor": 0.9
  },
  {
    "lat": 54.4388,
    "lon": -0.712,
    "Placename": "North Yorkshire Moors Railway, Goathland, England",
    "Category": "Filming Location",
    "Description": "The heritage railway provided period train sequences for *The Dial of Destiny*.",
    "pictures": [],
    "film": "Indiana Jones and the Dial of Destiny",
    "Scene": "Period train sequence",
    "cFactor": 0.78
  },
  {
    "lat": 37.0755,
    "lon": 15.2866,
    "Placename": "Syracuse, Sicily, Italy",
    "Category": "Filming Location",
    "Description": "Syracuse's historic streets supported action beats in *The Dial of Destiny*'s Mediterranean chapters.",
    "pictures": [],
    "film": "Indiana Jones and the Dial of Destiny",
    "Scene": "Mediterranean action beats",
    "cFactor": 0.9
  },
  {
    "lat": 38.0396,
    "lon": 14.022,
    "Placename": "Cefal\u00f9, Sicily, Italy",
    "Category": "Filming Location",
    "Description": "Cefal\u00f9 supplied coastal vistas and street runs for *The Dial of Destiny*.",
    "pictures": [],
    "film": "Indiana Jones and the Dial of Destiny",
    "Scene": "Coastal chase visuals",
    "cFactor": 0.9
  },
  {
    "lat": 38.0209,
    "lon": 12.8834,
    "Placename": "Castellammare del Golfo, Sicily, Italy",
    "Category": "Filming Location",
    "Description": "Castellammare del Golfo doubled for Mediterranean chase sequences in *The Dial of Destiny*.",
    "pictures": [],
    "film": "Indiana Jones and the Dial of Destiny",
    "Scene": "Mediterranean chase sequence",
    "cFactor": 0.9
  },
  {
    "lat": 38.1157,
    "lon": 13.3615,
    "Placename": "Palermo, Sicily, Italy",
    "Category": "Filming Location",
    "Description": "Palermo's urban backdrops were used for city travel plates in *The Dial of Destiny*.",
    "pictures": [],
    "film": "Indiana Jones and the Dial of Destiny",
    "Scene": "City travel plates",
    "cFactor": 0.9
  },
  {
    "lat": 36.8902,
    "lon": 15.0693,
    "Placename": "Noto, Sicily, Italy",
    "Category": "Filming Location",
    "Description": "Noto's baroque architecture featured in Mediterranean sequences in *The Dial of Destiny*.",
    "pictures": [],
    "film": "Indiana Jones and the Dial of Destiny",
    "Scene": "Baroque city backdrops",
    "cFactor": 0.9
  },
  {
    "lat": 34.0181,
    "lon": -5.0078,
    "Placename": "Fez, Morocco",
    "Category": "Filming Location",
    "Description": "Fez doubled for North African city streets in *The Dial of Destiny*.",
    "pictures": [],
    "film": "Indiana Jones and the Dial of Destiny",
    "Scene": "North African street sequences",
    "cFactor": 0.9
  },
  {
    "lat": 30.9335,
    "lon": -6.937,
    "Placename": "Ouarzazate, Morocco",
    "Category": "Filming Location",
    "Description": "Ouarzazate provided desert edges and production facilities for *The Dial of Destiny* location work.",
    "pictures": [],
    "film": "Indiana Jones and the Dial of Destiny",
    "Scene": "Desert production base",
    "cFactor": 0.9
  },
  {
    "lat": 31.6295,
    "lon": -7.9811,
    "Placename": "Marrakesh, Morocco",
    "Category": "Filming Location",
    "Description": "Marrakesh supplied bustling market visuals for *The Dial of Destiny*'s North Africa sequences.",
    "pictures": [],
    "film": "Indiana Jones and the Dial of Destiny",
    "Scene": "Market and chase visuals",
    "cFactor": 0.9
  },
  {
    "lat": 31.5085,
    "lon": -9.7595,
    "Placename": "Essaouira, Morocco",
    "Category": "Filming Location",
    "Description": "Essaouira's Atlantic port texture helped depict coastal moments in *The Dial of Destiny*.",
    "pictures": [],
    "film": "Indiana Jones and the Dial of Destiny",
    "Scene": "Coastal port scenes",
    "cFactor": 0.9
  },
  {
    "lat": 37.7749,
    "lon": -122.4194,
    "Placename": "San Francisco, California, USA",
    "Category": "Filming Location",
    "Description": "San Francisco streets and skylines supported American establishing shots in *The Dial of Destiny*.",
    "pictures": [],
    "film": "Indiana Jones and the Dial of Destiny",
    "Scene": "U.S. establishing plates",
    "cFactor": 0.78
  },
  {
    "lat": 40.7128,
    "lon": -74.006,
    "Placename": "New York City, New York, USA",
    "Category": "Filming Location",
    "Description": "New York City provided reference plates and interiors for *The Dial of Destiny* sequences set in 1969.",
    "pictures": [],
    "film": "Indiana Jones and the Dial of Destiny",
    "Scene": "1969 city references",
    "cFactor": 0.78
  },
  {
    "lat": 35.8989,
    "lon": 14.5146,
    "Placename": "Valletta, Malta",
    "Category": "Filming Location",
    "Description": "Valletta's waterfront and alleys were used for Mediterranean city plates across late-series Indiana Jones production.",
    "pictures": [],
    "film": "Indiana Jones and the Dial of Destiny",
    "Scene": "Mediterranean city stand-ins",
    "cFactor": 0.9
  },
  {
    "lat": 35.687,
    "lon": -105.9378,
    "Placename": "Santa Fe, New Mexico, USA",
    "Category": "Filming Location",
    "Description": "Santa Fe's desert surroundings helped stage Southwest travel imagery in *Kingdom of the Crystal Skull*.",
    "pictures": [],
    "film": "Indiana Jones and the Kingdom of the Crystal Skull",
    "Scene": "Southwest travel imagery",
    "cFactor": 0.78
  },
  {
    "lat": 34.6405,
    "lon": -106.8325,
    "Placename": "Belen, New Mexico, USA",
    "Category": "Filming Location",
    "Description": "Belen area rail lines offered period industrial scenery for *Kingdom of the Crystal Skull*.",
    "pictures": [],
    "film": "Indiana Jones and the Kingdom of the Crystal Skull",
    "Scene": "Rail corridor scenes",
    "cFactor": 0.78
  },
  {
    "lat": 34.953,
    "lon": -106.6146,
    "Placename": "Albuquerque, New Mexico, USA",
    "Category": "Filming Location",
    "Description": "Albuquerque provided desert and rail corridor plates for *Kingdom of the Crystal Skull*.",
    "pictures": [],
    "film": "Indiana Jones and the Kingdom of the Crystal Skull",
    "Scene": "Desert and rail plates",
    "cFactor": 0.78
  },
  {
    "lat": 36.4556,
    "lon": 25.469,
    "Placename": "Santorini, Greece",
    "Category": "Filming Location",
    "Description": "Santorini's caldera vistas supplied Aegean visual references for *The Dial of Destiny* travel moments.",
    "pictures": [],
    "film": "Indiana Jones and the Dial of Destiny",
    "Scene": "Aegean travel plates",
    "cFactor": 0.78
  },
  {
    "lat": 37.9838,
    "lon": 23.7275,
    "Placename": "Athens, Greece",
    "Category": "Filming Location",
    "Description": "Athens appeared in establishing shots for *The Dial of Destiny*'s Mediterranean storyline.",
    "pictures": [],
    "film": "Indiana Jones and the Dial of Destiny",
    "Scene": "Mediterranean establishing shots",
    "cFactor": 0.78
  }
]
